{"business_id":"1o3N4PiPI-fHnJnh-U85iw","name":"Panera Bread","neighborhood":"","address":"623 Clairton Blvd","city":"Pleasant Hills","state":"PA","postal_code":"15236","latitude":40.3314729865,"longitude":-79.9439789169,"stars":3.5,"review_count":5,"is_open":1,"attributes":["Alcohol: none","Ambience: {'romantic': False, 'intimate': False, 'classy': False, 'hipster': False, 'divey': False, 'touristy': False, 'trendy': False, 'upscale': False, 'casual': False}","BikeParking: True","BusinessAcceptsCreditCards: True","BusinessParking: {'garage': False, 'street': False, 'validated': False, 'lot': False, 'valet': False}","Caters: True","GoodForKids: True","GoodForMeal: {'dessert': False, 'latenight': False, 'lunch': False, 'dinner': False, 'breakfast': False, 'brunch': False}","HasTV: True","NoiseLevel: quiet","OutdoorSeating: True","RestaurantsAttire: casual","RestaurantsDelivery: False","RestaurantsGoodForGroups: True","RestaurantsPriceRange2: 2","RestaurantsReservations: False","RestaurantsTableService: False","RestaurantsTakeOut: True"],"categories":["Sandwiches","Soup","Breakfast & Brunch","Bagels","Restaurants","Food","Bakeries","Salad"],"hours":["Monday 6:30-21:0","Tuesday 6:30-21:0","Wednesday 6:30-21:0","Thursday 6:30-21:0","Friday 6:30-21:0","Saturday 6:30-21:0","Sunday 7:0-20:0"],"type":"business"}
{"business_id":"S_PIEh7BwsEi9sn7fuwFow","name":"PetSmart","neighborhood":"","address":"523 Clairton Blvd","city":"Pleasant Hills","state":"PA","postal_code":"15236","latitude":40.3335212,"longitude":-79.9463308,"stars":3.5,"review_count":10,"is_open":1,"attributes":null,"categories":["Pet Stores","Pet Groomers","Pet Training","Pet Services","Pets"],"hours":["Monday 9:0-21:0","Tuesday 9:0-21:0","Wednesday 9:0-21:0","Thursday 9:0-21:0","Friday 9:0-21:0","Saturday 9:0-21:0","Sunday 10:0-19:0"],"type":"business"}
{"business_id":"_lLI8zKjvRsCan533duEGw","name":"Banfield Pet Hospital","neighborhood":"","address":"523 Clairton Blvd","city":"Pleasant Hills","state":"PA","postal_code":"15236","latitude":40.3333391737,"longitude":-79.9442463582,"stars":3.5,"review_count":6,"is_open":1,"attributes":null,"categories":["Veterinarians","Pets"],"hours":["Monday 9:0-19:0","Tuesday 9:0-19:0","Wednesday 9:0-19:0","Thursday 9:0-19:0","Friday 9:0-19:0","Saturday 9:0-19:0","Sunday 10:0-17:0"],"type":"business"}
{"business_id":"-M1rgYnaoGC82VEta1gdsg","name":"Bowser Subaru","neighborhood":"","address":"1001 Clairton Blvd","city":"Pleasant Hills","state":"PA","postal_code":"15236","latitude":40.3211349,"longitude":-79.9411593,"stars":3.5,"review_count":9,"is_open":1,"attributes":["BusinessAcceptsCreditCards: True"],"categories":["Tires","Body Shops","Auto Repair","Automotive","Auto Parts & Supplies","Car Dealers","Oil Change Stations"],"hours":["Monday 8:0-20:0","Tuesday 8:0-20:0","Wednesday 8:0-16:30","Thursday 8:0-20:0","Friday 8:0-16:30","Saturday 9:0-17:0"],"type":"business"}
{"business_id":"RRjY0S2HFDUHrWWLp9Oyzw","name":"Levin Furniture","neighborhood":"","address":"292 Curry Hollow Road","city":"Pleasant Hills","state":"PA","postal_code":"15236","latitude":40.3363617,"longitude":-79.9721025,"stars":1.0,"review_count":3,"is_open":1,"attributes":["BikeParking: True","BusinessAcceptsCreditCards: True","BusinessParking: {'garage': False, 'street': False, 'validated': False, 'lot': True, 'valet': False}","ByAppointmentOnly: False","DogsAllowed: False","RestaurantsPriceRange2: 3","WheelchairAccessible: True"],"categories":["Home & Garden","Shopping","Furniture Stores","Interior Design","Home Services","Mattresses"],"hours":["Monday 10:0-21:0","Tuesday 10:0-21:0","Wednesday 10:0-21:0","Thursday 10:0-21:0","Friday 10:0-21:0","Saturday 10:0-21:0","Sunday 12:0-18:0"],"type":"business"}
{"business_id":"bFlP7uApDamdiVHwX8OwfA","name":"China Ichiban","neighborhood":"","address":"318 Curry Hollow Rd","city":"Pleasant Hills","state":"PA","postal_code":"15236","latitude":40.3375560832,"longitude":-79.9761933088,"stars":4.0,"review_count":6,"is_open":1,"attributes":["Alcohol: none","Ambience: {'romantic': False, 'intimate': False, 'classy': False, 'hipster': False, 'divey': False, 'touristy': False, 'trendy': False, 'upscale': False, 'casual': False}","BikeParking: True","BusinessAcceptsCreditCards: True","BusinessParking: {'garage': False, 'street': True, 'validated': False, 'lot': True, 'valet': False}","GoodForKids: True","HasTV: False","OutdoorSeating: False","RestaurantsAttire: casual","RestaurantsDelivery: True","RestaurantsGoodForGroups: True","RestaurantsPriceRange2: 1","RestaurantsReservations: False","RestaurantsTakeOut: True","WiFi: free"],"categories":["Soup","Restaurants","Chinese","Seafood"],"hours":["Monday 11:0-22:0","Tuesday 11:0-22:0","Wednesday 11:0-22:0","Thursday 11:0-22:0","Friday 11:0-22:30","Saturday 11:0-22:30","Sunday 12:0-21:0"],"type":"business"}
{"business_id":"aEH2WZFMzLcbJmTiu1urMg","name":"The Baltimore House","neighborhood":"","address":"176 Curry Hollow Rd","city":"Pleasant Hills","state":"PA","postal_code":"15236","latitude":40.3384822,"longitude":-79.9688625,"stars":2.5,"review_count":53,"is_open":1,"attributes":["Alcohol: full_bar","Ambience: {'romantic': False, 'intimate': False, 'classy': False, 'hipster': False, 'divey': False, 'touristy': False, 'trendy': False, 'upscale': False, 'casual': True}","BikeParking: False","BusinessAcceptsCreditCards: True","BusinessParking: {'garage': False, 'street': False, 'validated': False, 'lot': True, 'valet': False}","Caters: True","GoodForKids: True","GoodForMeal: {'dessert': False, 'latenight': False, 'lunch': True, 'dinner': True, 'breakfast': False, 'brunch': False}","HasTV: True","NoiseLevel: average","OutdoorSeating: False","RestaurantsAttire: casual","RestaurantsDelivery: False","RestaurantsGoodForGroups: True","RestaurantsPriceRange2: 2","RestaurantsReservations: True","RestaurantsTableService: True","RestaurantsTakeOut: True","WheelchairAccessible: False","WiFi: no"],"categories":["Restaurants","Food","Event Planning & Services","Sandwiches","Pizza","Caterers","Desserts","Seafood","Japanese","American (Traditional)"],"hours":["Monday 11:0-23:0","Tuesday 11:0-23:0","Wednesday 11:0-0:0","Thursday 11:0-0:0","Friday 11:0-0:0","Saturday 11:0-0:0","Sunday 12:0-22:0"],"type":"business"}
{"business_id":"wOqMqriEaxFPAH8i6KUudg","name":"Allstate Insurance: Blair Bogdan","neighborhood":"","address":"120 Clairton Blvd","city":"Pleasant Hills","state":"PA","postal_code":"15236","latitude":40.338772,"longitude":-79.959519,"stars":5.0,"review_count":10,"is_open":1,"attributes":null,"categories":["Insurance","Financial Services"],"hours":["Monday 9:0-17:30","Tuesday 9:0-17:30","Wednesday 9:0-17:30","Thursday 9:0-17:30","Friday 9:0-17:30","Saturday 11:0-13:0"],"type":"business"}
{"business_id":"DOPUVzD2evgm5xJ-Ea66uQ","name":"Party City","neighborhood":"","address":"420 Clairton State Hwy Rte 51","city":"Pleasant Hills","state":"PA","postal_code":"15236","latitude":40.3356252,"longitude":-79.9606066,"stars":2.0,"review_count":4,"is_open":1,"attributes":["BusinessAcceptsCreditCards: True"],"categories":["Event Planning & Services","Party Supplies"],"hours":null,"type":"business"}
{"business_id":"i_1ORltzRXvf9H2rvfS-Ag","name":"Gali's Gyro & Grill","neighborhood":"","address":"71-73 Clairton Blvd","city":"Pleasant Hills","state":"PA","postal_code":"15236","latitude":40.3395432,"longitude":-79.9615358,"stars":4.5,"review_count":49,"is_open":1,"attributes":["Alcohol: none","Ambience: {'romantic': False, 'intimate': False, 'classy': False, 'hipster': False, 'divey': False, 'touristy': False, 'trendy': False, 'upscale': False, 'casual': True}","BikeParking: True","BusinessAcceptsCreditCards: True","BusinessParking: {'garage': False, 'street': False, 'validated': False, 'lot': True, 'valet': False}","Caters: True","GoodForKids: True","GoodForMeal: {'dessert': False, 'latenight': False, 'lunch': True, 'dinner': True, 'breakfast': False, 'brunch': False}","HasTV: False","NoiseLevel: average","OutdoorSeating: False","RestaurantsAttire: casual","RestaurantsDelivery: False","RestaurantsGoodForGroups: True","RestaurantsPriceRange2: 2","RestaurantsReservations: False","RestaurantsTableService: True","RestaurantsTakeOut: True","WiFi: no"],"categories":["Greek","Sandwiches","Restaurants","Mediterranean","Pizza"],"hours":["Monday 11:0-21:0","Tuesday 11:0-21:0","Wednesday 11:0-21:0","Thursday 11:0-21:0","Friday 11:0-21:0","Saturday 11:0-21:0"],"type":"business"}
{"business_id":"zJ-V2GZ9q7UkwYFl3G116w","name":"Olive Garden Italian Restaurant","neighborhood":"","address":"527 Clairton Boulevard","city":"Pleasant Hills","state":"PA","postal_code":"15236","latitude":40.333009,"longitude":-79.9457087,"stars":3.0,"review_count":27,"is_open":1,"attributes":["Alcohol: full_bar","Ambience: {'romantic': False, 'intimate': False, 'classy': False, 'hipster': False, 'divey': False, 'touristy': False, 'trendy': False, 'upscale': False, 'casual': True}","BikeParking: False","BusinessAcceptsCreditCards: True","Caters: True","CoatCheck: False","GoodForDancing: False","GoodForKids: True","HappyHour: False","HasTV: True","NoiseLevel: average","OutdoorSeating: False","RestaurantsAttire: casual","RestaurantsDelivery: False","RestaurantsGoodForGroups: True","RestaurantsPriceRange2: 2","RestaurantsReservations: True","RestaurantsTableService: True","RestaurantsTakeOut: True","Smoking: no","WheelchairAccessible: True","WiFi: no","BestNights: {'monday': False, 'tuesday': False, 'friday': False, 'wednesday': False, 'thursday': False, 'sunday': False, 'saturday': False}","Music: {'dj': False, 'background_music': False, 'no_music': False, 'karaoke': False, 'live': False, 'video': False, 'jukebox': False}","GoodForMeal: {'dessert': True, 'latenight': False, 'lunch': True, 'dinner': True, 'breakfast': False, 'brunch': False}","BusinessParking: {'garage': False, 'street': False, 'validated': False, 'lot': False, 'valet': False}"],"categories":["Bars","Italian","Salad","Nightlife","Restaurants","Wine Bars"],"hours":["Monday 11:0-22:0","Tuesday 11:0-22:0","Wednesday 11:0-22:0","Thursday 11:0-22:0","Friday 11:0-23:0","Saturday 11:0-23:0","Sunday 11:0-22:0"],"type":"business"}
{"business_id":"2Pf6xStKn1mJMccFOt4whg","name":"Aldi","neighborhood":"","address":"434 Audrey Dr","city":"Pleasant Hills","state":"PA","postal_code":"15236","latitude":40.335311,"longitude":-79.9502399,"stars":3.0,"review_count":5,"is_open":1,"attributes":["BikeParking: True","BusinessAcceptsCreditCards: False","BusinessParking: {'garage': False, 'street': False, 'validated': False, 'lot': True, 'valet': False}","RestaurantsPriceRange2: 1","RestaurantsTakeOut: False"],"categories":["Shopping","Food","Grocery","Discount Store"],"hours":null,"type":"business"}
{"business_id":"LXgefZCpnd9Y6z8Qu3ommA","name":"Kmart","neighborhood":"","address":"720 Clairton Blvd","city":"Pleasant Hills","state":"PA","postal_code":"15236","latitude":40.3279625,"longitude":-79.9448012,"stars":3.0,"review_count":5,"is_open":1,"attributes":["BikeParking: False","BusinessAcceptsCreditCards: True","BusinessParking: {'garage': False, 'street': False, 'validated': False, 'lot': False, 'valet': False}","RestaurantsPriceRange2: 2"],"categories":["Shopping","Department Stores","Fashion"],"hours":["Monday 9:0-22:0","Tuesday 9:0-22:0","Wednesday 9:0-22:0","Thursday 9:0-22:0","Friday 9:0-22:0","Saturday 9:0-22:0","Sunday 9:0-21:0"],"type":"business"}
{"business_id":"dfAWV-VltqFxkhlYu3PekA","name":"Yu's Old Town Buffet","neighborhood":"","address":"591 Clairton Blvd","city":"Pleasant Hills","state":"PA","postal_code":"15236","latitude":40.3326499,"longitude":-79.9460512,"stars":3.5,"review_count":11,"is_open":0,"attributes":["Alcohol: none","Ambience: {'romantic': False, 'intimate': False, 'classy': False, 'hipster': False, 'divey': False, 'touristy': False, 'trendy': False, 'upscale': False, 'casual': True}","BikeParking: True","BusinessAcceptsCreditCards: True","BusinessParking: {'garage': False, 'street': False, 'validated': False, 'lot': True, 'valet': False}","Caters: False","GoodForKids: True","GoodForMeal: {'dessert': False, 'latenight': False, 'lunch': True, 'dinner': True, 'breakfast': False, 'brunch': False}","HasTV: True","NoiseLevel: average","Open24Hours: False","OutdoorSeating: False","RestaurantsAttire: casual","RestaurantsDelivery: False","RestaurantsGoodForGroups: True","RestaurantsPriceRange2: 2","RestaurantsReservations: False","RestaurantsTableService: True","RestaurantsTakeOut: True","WheelchairAccessible: True","WiFi: no"],"categories":["Restaurants","Buffets"],"hours":["Monday 11:0-22:0","Tuesday 11:0-22:0","Wednesday 11:0-22:0","Thursday 11:0-22:0","Friday 11:0-23:0","Saturday 11:0-23:0","Sunday 11:0-22:0"],"type":"business"}
{"business_id":"n47XFIEWgTa0q77N8_hlNA","name":"Bowser Buick GMC","neighborhood":"","address":"1001 Clairton Blvd","city":"Pleasant Hills","state":"PA","postal_code":"15236","latitude":40.3329736,"longitude":-79.9456907,"stars":3.5,"review_count":7,"is_open":1,"attributes":["BusinessAcceptsCreditCards: True"],"categories":["Auto Repair","Car Dealers","Automotive"],"hours":["Monday 9:0-21:0","Tuesday 9:0-21:0","Wednesday 9:0-18:0","Thursday 9:0-21:0","Friday 9:0-18:0","Saturday 9:0-17:0"],"type":"business"}
{"business_id":"P4uQXhzxjKFBtnqfx_O4tA","name":"Vocelli Pizza Pleasant Hills","neighborhood":"","address":"691 Clairton Blvd","city":"Pleasant Hills","state":"PA","postal_code":"15236","latitude":40.3289322,"longitude":-79.9450114,"stars":4.5,"review_count":5,"is_open":1,"attributes":null,"categories":["Restaurants","Pizza"],"hours":["Monday 11:0-23:0","Tuesday 11:0-23:0","Wednesday 11:0-23:0","Thursday 11:0-23:0","Friday 11:0-0:0","Saturday 11:0-0:0","Sunday 11:0-23:0"],"type":"business"}
{"business_id":"LX2tNHlYsxHNdNo5j0ZF7A","name":"Steak 'n Shake","neighborhood":"","address":"410 Clairton Blvd","city":"Pleasant Hills","state":"PA","postal_code":"15236","latitude":40.3358189,"longitude":-79.9480145,"stars":2.0,"review_count":18,"is_open":1,"attributes":["Alcohol: none","Ambience: {'romantic': False, 'intimate': False, 'classy': False, 'hipster': False, 'divey': False, 'touristy': False, 'trendy': False, 'upscale': False, 'casual': False}","BikeParking: False","BusinessAcceptsCreditCards: True","BusinessParking: {'garage': False, 'street': False, 'validated': False, 'lot': True, 'valet': False}","Caters: False","DriveThru: True","GoodForKids: True","GoodForMeal: {'dessert': False, 'latenight': False, 'lunch': True, 'dinner': False, 'breakfast': False, 'brunch': False}","HasTV: False","NoiseLevel: average","OutdoorSeating: False","RestaurantsAttire: casual","RestaurantsDelivery: False","RestaurantsGoodForGroups: True","RestaurantsPriceRange2: 1","RestaurantsReservations: False","RestaurantsTableService: True","RestaurantsTakeOut: True","WheelchairAccessible: True","WiFi: free"],"categories":["American (New)","Fast Food","Burgers","Restaurants","Breakfast & Brunch","Sandwiches"],"hours":["Monday 0:0-0:0","Tuesday 0:0-0:0","Wednesday 0:0-0:0","Thursday 0:0-0:0","Friday 0:0-0:0","Saturday 0:0-0:0","Sunday 0:0-0:0"],"type":"business"}
{"business_id":"Buk9ike3OWSfdWh841-poA","name":"The Coffee Tree Roasters","neighborhood":"","address":"10 Old Clairton Rd","city":"Pleasant Hills","state":"PA","postal_code":"15236","latitude":40.340052,"longitude":-79.965678,"stars":4.5,"review_count":15,"is_open":1,"attributes":["BikeParking: True","BusinessAcceptsCreditCards: True","BusinessParking: {'garage': False, 'street': False, 'validated': False, 'lot': False, 'valet': False}","OutdoorSeating: False","RestaurantsPriceRange2: 2","RestaurantsTakeOut: True","WiFi: free"],"categories":["Coffee & Tea","Food"],"hours":["Monday 6:0-23:0","Tuesday 6:0-23:0","Wednesday 6:0-23:0","Thursday 6:0-23:0","Friday 6:0-0:0","Saturday 6:0-0:0","Sunday 6:0-23:0"],"type":"business"}
{"business_id":"hO2ozmbSGYbWbp1_KWPqRw","name":"Dunkin' Donuts","neighborhood":"","address":"360 Curry Hollow Rd","city":"Pleasant Hills","state":"PA","postal_code":"15236","latitude":40.3359229,"longitude":-79.9744622,"stars":3.5,"review_count":12,"is_open":1,"attributes":["BikeParking: True","BusinessAcceptsCreditCards: True","BusinessParking: {'garage': False, 'street': False, 'validated': False, 'lot': False, 'valet': False}","OutdoorSeating: True","RestaurantsPriceRange2: 1","RestaurantsTakeOut: True","WiFi: free"],"categories":["Donuts","Coffee & Tea","Food"],"hours":null,"type":"business"}
{"business_id":"8ocVvQPVBDN6ZVwXPyX4NA","name":"DFW Furniture","neighborhood":"","address":"810 Clairton Blvd","city":"Pleasant Hills","state":"PA","postal_code":"15236","latitude":40.324789,"longitude":-79.944892,"stars":2.0,"review_count":4,"is_open":0,"attributes":["BusinessAcceptsCreditCards: True","BusinessParking: {'garage': False, 'street': False, 'validated': False, 'lot': True, 'valet': False}","WheelchairAccessible: True"],"categories":["Furniture Stores","Shopping","Mattresses","Home & Garden"],"hours":["Monday 10:0-20:0","Tuesday 10:0-20:0","Wednesday 10:0-20:0","Thursday 10:0-20:0","Friday 10:0-20:0","Saturday 10:0-20:0","Sunday 12:0-17:0"],"type":"business"}
{"business_id":"LQPnKOLGKefa3OYCWu32Mw","name":"LA Fitness","neighborhood":"","address":"601 Clairton Blvd., Unit 38","city":"Pleasant Hills","state":"PA","postal_code":"15236","latitude":40.3332112,"longitude":-79.9462352,"stars":2.5,"review_count":11,"is_open":1,"attributes":["ByAppointmentOnly: False","GoodForKids: True"],"categories":["Gyms","Trainers","Fitness & Instruction","Active Life","Sports Clubs","Yoga"],"hours":["Monday 5:0-0:0","Tuesday 5:0-0:0","Wednesday 5:0-0:0","Thursday 5:0-0:0","Friday 5:0-22:0","Saturday 8:0-20:0","Sunday 8:0-20:0"],"type":"business"}
{"business_id":"c98EjK4wKpKrGrdZibPq2g","name":"Fortune Star Buffet & Grill","neighborhood":"","address":"591 Clairton Blvd","city":"Pleasant Hills","state":"PA","postal_code":"15236","latitude":40.3332197,"longitude":-79.9462378,"stars":3.5,"review_count":12,"is_open":1,"attributes":["Alcohol: none","Ambience: {'romantic': False, 'intimate': False, 'classy': False, 'hipster': False, 'divey': False, 'touristy': False, 'trendy': False, 'upscale': False, 'casual': False}","BusinessAcceptsCreditCards: True","Caters: False","GoodForKids: True","HasTV: False","NoiseLevel: average","OutdoorSeating: False","RestaurantsAttire: casual","RestaurantsDelivery: False","RestaurantsGoodForGroups: True","RestaurantsPriceRange2: 2","RestaurantsReservations: False","RestaurantsTableService: True","RestaurantsTakeOut: True","WiFi: no"],"categories":["Sushi Bars","Buffets","American (New)","Desserts","Restaurants","Food","Chinese"],"hours":["Monday 11:0-21:30","Tuesday 11:0-21:30","Wednesday 11:0-21:30","Thursday 11:0-21:30","Friday 11:0-22:30","Saturday 11:0-22:30","Sunday 11:0-21:0"],"type":"business"}
{"business_id":"2Bdx3erDPl7FgWZD3kHgPg","name":"MedExpress Urgent Care","neighborhood":"","address":"695 Clairton Blvd","city":"Pleasant Hills","state":"PA","postal_code":"15236","latitude":40.328865,"longitude":-79.9445418,"stars":4.5,"review_count":5,"is_open":1,"attributes":["AcceptsInsurance: True","ByAppointmentOnly: False"],"categories":["Doctors","Health & Medical","Urgent Care"],"hours":["Monday 8:0-20:0","Tuesday 8:0-20:0","Wednesday 8:0-20:0","Thursday 8:0-20:0","Friday 8:0-20:0","Saturday 8:0-20:0","Sunday 8:0-20:0"],"type":"business"}
{"business_id":"3zR3Uj23aXY1V3L2qt1t6w","name":"Our Little Secret Cafe & Catering","neighborhood":"","address":"332 Curry Hollow Rd","city":"Pleasant Hills","state":"PA","postal_code":"15236","latitude":40.3375829,"longitude":-79.9769376,"stars":4.5,"review_count":30,"is_open":1,"attributes":["Alcohol: none","Ambience: {'romantic': False, 'intimate': False, 'classy': False, 'hipster': False, 'divey': False, 'touristy': False, 'trendy': False, 'upscale': False, 'casual': True}","BikeParking: False","BusinessAcceptsCreditCards: True","BusinessParking: {'garage': False, 'street': False, 'validated': False, 'lot': True, 'valet': False}","Caters: True","GoodForKids: True","GoodForMeal: {'dessert': False, 'latenight': False, 'lunch': True, 'dinner': False, 'breakfast': True, 'brunch': True}","HasTV: False","NoiseLevel: average","OutdoorSeating: False","RestaurantsAttire: casual","RestaurantsDelivery: False","RestaurantsGoodForGroups: True","RestaurantsPriceRange2: 1","RestaurantsReservations: False","RestaurantsTableService: True","RestaurantsTakeOut: True"],"categories":["Diners","American (Traditional)","Breakfast & Brunch","Restaurants"],"hours":["Monday 8:0-12:30","Tuesday 8:0-12:30","Wednesday 8:0-12:30","Thursday 8:0-12:30","Friday 8:0-12:30","Saturday 8:0-12:30","Sunday 8:0-12:30"],"type":"business"}
{"business_id":"XxnJZbFBJ8BKPg0_4eJdAA","name":"Chick-fil-A","neighborhood":"","address":"461 Clairton Blvd","city":"Pleasant Hills","state":"PA","postal_code":"15236","latitude":40.33504254,"longitude":-79.94646743,"stars":3.5,"review_count":5,"is_open":1,"attributes":["Alcohol: none","Ambience: {'romantic': False, 'intimate': False, 'classy': False, 'hipster': False, 'divey': False, 'touristy': False, 'trendy': False, 'upscale': False, 'casual': False}","BikeParking: True","BusinessAcceptsCreditCards: True","BusinessParking: {'garage': False, 'street': False, 'validated': False, 'lot': False, 'valet': False}","Caters: True","DriveThru: True","GoodForKids: True","GoodForMeal: {'dessert': False, 'latenight': False, 'lunch': True, 'dinner': False, 'breakfast': False, 'brunch': False}","HasTV: False","NoiseLevel: average","OutdoorSeating: False","RestaurantsAttire: casual","RestaurantsDelivery: False","RestaurantsGoodForGroups: True","RestaurantsPriceRange2: 1","RestaurantsReservations: False","RestaurantsTableService: True","RestaurantsTakeOut: True","WiFi: free"],"categories":["Restaurants","Fast Food","Chicken Wings"],"hours":["Monday 6:30-22:0","Tuesday 6:30-22:0","Wednesday 6:30-22:0","Thursday 6:30-22:0","Friday 6:30-22:0","Saturday 6:30-22:0"],"type":"business"}
{"business_id":"f0ZE8gyEPhcjPnS3A-r_xw","name":"Walgreens","neighborhood":"","address":"4 Old Clairton Rd","city":"Pleasant Hills","state":"PA","postal_code":"15236","latitude":40.3406547,"longitude":-79.9663358,"stars":4.0,"review_count":3,"is_open":1,"attributes":["BikeParking: False","BusinessAcceptsCreditCards: True","BusinessParking: {'garage': False, 'street': False, 'validated': False, 'lot': False, 'valet': False}","ByAppointmentOnly: False","RestaurantsPriceRange2: 1"],"categories":["Cosmetics & Beauty Supply","Food","Drugstores","Photography Stores & Services","Convenience Stores","Shopping","Beauty & Spas"],"hours":["Monday 0:0-0:0","Tuesday 0:0-0:0","Wednesday 0:0-0:0","Thursday 0:0-0:0","Friday 0:0-0:0","Saturday 0:0-0:0","Sunday 0:0-0:0"],"type":"business"}
{"business_id":"xKbcJNaFoLziKm2JyfzfpA","name":"Quaker Steak & Lube","neighborhood":"","address":"511 Clairton Blvd","city":"Pleasant Hills","state":"PA","postal_code":"15236","latitude":40.3337867258,"longitude":-79.9450317001,"stars":3.0,"review_count":33,"is_open":0,"attributes":["Alcohol: full_bar","Ambience: {'romantic': False, 'intimate': False, 'classy': False, 'hipster': False, 'divey': False, 'touristy': False, 'trendy': False, 'upscale': False, 'casual': True}","BikeParking: True","BusinessAcceptsCreditCards: True","BusinessParking: {'garage': False, 'street': False, 'validated': False, 'lot': True, 'valet': False}","Caters: False","DogsAllowed: False","GoodForKids: True","GoodForMeal: {'dessert': True, 'latenight': False, 'lunch': False, 'dinner': False, 'breakfast': False, 'brunch': False}","HasTV: True","NoiseLevel: average","OutdoorSeating: True","RestaurantsAttire: casual","RestaurantsDelivery: True","RestaurantsGoodForGroups: True","RestaurantsPriceRange2: 2","RestaurantsReservations: True","RestaurantsTableService: True","RestaurantsTakeOut: True","WheelchairAccessible: True","WiFi: free"],"categories":["Chicken Wings","American (Traditional)","Restaurants"],"hours":["Monday 11:0-23:30","Tuesday 11:0-23:30","Wednesday 11:0-23:30","Thursday 11:0-23:30","Friday 11:0-0:30","Saturday 11:0-0:30","Sunday 11:0-23:30"],"type":"business"}
{"business_id":"sWn-Ex-rxxPAhLmM_HC4yA","name":"Pat Catan's Craft Center","neighborhood":"","address":"296 Curry Hollow Rd","city":"Pleasant Hills","state":"PA","postal_code":"15236","latitude":40.3363365,"longitude":-79.9721667,"stars":4.5,"review_count":6,"is_open":1,"attributes":["BikeParking: True","BusinessAcceptsCreditCards: True","BusinessParking: {'garage': False, 'street': False, 'validated': False, 'lot': True, 'valet': False}","RestaurantsPriceRange2: 1"],"categories":["Art Supplies","Shopping","Home Services","Glass & Mirrors","Arts & Crafts"],"hours":["Monday 9:0-21:0","Tuesday 9:0-21:0","Wednesday 9:0-21:0","Thursday 9:0-21:0","Friday 9:0-21:0","Saturday 9:0-21:0","Sunday 10:0-18:0"],"type":"business"}
{"business_id":"UN18cOHIqSSMAcpI8tyzPw","name":"Day Toyota","neighborhood":"","address":"1110 Clairton Blvd","city":"Pleasant Hills","state":"PA","postal_code":"15236","latitude":40.3179474,"longitude":-79.940962,"stars":4.5,"review_count":10,"is_open":1,"attributes":["BusinessAcceptsCreditCards: True"],"categories":["Car Dealers","Automotive","Auto Repair","Body Shops"],"hours":["Monday 9:0-21:0","Tuesday 9:0-21:0","Wednesday 9:0-21:0","Thursday 9:0-21:0","Friday 9:0-18:0","Saturday 9:0-17:0"],"type":"business"}
{"business_id":"OKc5RgPaLwq_hJySh4Tf8w","name":"DentalWorks","neighborhood":"","address":"517 Clairton Blvd","city":"Pleasant Hills","state":"PA","postal_code":"15122","latitude":40.33159,"longitude":-79.9457182,"stars":5.0,"review_count":6,"is_open":1,"attributes":["AcceptsInsurance: True","ByAppointmentOnly: True","BusinessAcceptsCreditCards: True"],"categories":["Health & Medical","Dentists","Orthodontists"],"hours":["Monday 9:0-20:0","Tuesday 9:0-20:0","Wednesday 9:0-19:0","Thursday 10:0-20:0","Friday 9:0-16:0","Saturday 8:0-14:0"],"type":"business"}
